"Stazione","Lon","Lat","Indirizzo" 
"Trieste - via Carpineto","13.787500000","45.6232","via del Carpineto - Trieste (TS)"
"Trieste - piazza Carlo Alberto","13.756100000","45.6423","piazza Carlo Alberto - Trieste (TS)"
"Trieste - Sincrotrone","13.855000000","45.6473","Basovizza - Trieste (TS)"
"Trieste - P.zza Volontari Giuliani","13.789000000","45.6544","Piazza Volontari Giuliani - Trieste (TS)"
"Trieste - Via del Ponticello","13.783800000","45.6206","via del Ponticello - Trieste (TS)"
"Trieste - via Pitacco-ARPA","13.780300000","45.6242","VIA PITACCO - Trieste (TS)"
"Trieste - p.le Rosmini","13.766100000","45.6405","p.le Rosmini - Trieste (TS)"
"Trieste - RFI","13.779998","45.622565","Trieste RFI - Servola"
